[
  {
    "icao": "KTEB",
    "iata": "TEB",
    "name": "Teterboro Airport",
    "city": "Teterboro",
    "state": "New Jersey",
    "country": "United States",
    "latitude": 40.8502,
    "longitude": -74.0545,
    "elevation_ft": 2103,
    "type": "medium_airport",
    "continent": null,
    "scheduled_service": true
  },
  {
    "icao": "KHPN",
    "iata": "HPN",
    "name": "Westchester County Airport",
    "city": "White Plains",
    "state": "New York",
    "country": "United States",
    "latitude": 41.067,
    "longitude": -73.7075,
    "elevation_ft": 1957,
    "type": "medium_airport",
    "continent": null,
    "scheduled_service": true
  },
  {
    "icao": "KVDN",
    "iata": "VDN",
    "name": "Danbury Municipal Airport",
    "city": "Danbury",
    "state": "Connecticut",
    "country": "United States",
    "latitude": 41.3715,
    "longitude": -73.454,
    "elevation_ft": 1320,
    "type": "medium_airport",
    "continent": null,
    "scheduled_service": true
  },
  {
    "icao": "KADS",
    "iata": "ADS",
    "name": "Addison Airport",
    "city": "Addison",
    "state": "Texas",
    "country": "United States",
    "latitude": 32.9676,
    "longitude": -96.8355,
    "elevation_ft": 2160,
    "type": "medium_airport",
    "continent": null,
    "scheduled_service": true
  },
  {
    "icao": "KRYY",
    "iata": "RYY",
    "name": "Cobb County International Airport - McCollum Field",
    "city": "Marietta",
    "state": "Georgia",
    "country": "United States",
    "latitude": 33.9795,
    "longitude": -84.6655,
    "elevation_ft": 1892,
    "type": "medium_airport",
    "continent": null,
    "scheduled_service": true
  },
  {
    "icao": "KBUR",
    "iata": "BUR",
    "name": "Hollywood Burbank Airport",
    "city": "Burbank",
    "state": "California",
    "country": "United States",
    "latitude": 34.2007,
    "longitude": -118.3586,
    "elevation_ft": 2066,
    "type": "medium_airport",
    "continent": null,
    "scheduled_service": true
  },
  {
    "icao": "KSNA",
    "iata": "SNA",
    "name": "John Wayne Airport",
    "city": "Santa Ana",
    "state": "California",
    "country": "United States",
    "latitude": 33.6766,
    "longitude": -117.8686,
    "elevation_ft": 1710,
    "type": "medium_airport",
    "continent": null,
    "scheduled_service": true
  },
  {
    "icao": "KPDK",
    "iata": "PDK",
    "name": "DeKalb-Peachtree Airport",
    "city": "Atlanta",
    "state": "Georgia",
    "country": "United States",
    "latitude": 33.8796,
    "longitude": -84.3015,
    "elevation_ft": 1920,
    "type": "medium_airport",
    "continent": null,
    "scheduled_service": true
  },
  {
    "icao": "KFXE",
    "iata": "FXE",
    "name": "Fort Lauderdale Executive Airport",
    "city": "Fort Lauderdale",
    "state": "Florida",
    "country": "United States",
    "latitude": 26.197,
    "longitude": -80.1705,
    "elevation_ft": 1800,
    "type": "medium_airport",
    "continent": null,
    "scheduled_service": true
  },
  {
    "icao": "KOPF",
    "iata": "OPF",
    "name": "Opa-locka Executive Airport",
    "city": "Miami",
    "state": "Florida",
    "country": "United States",
    "latitude": 25.9096,
    "longitude": -80.2805,
    "elevation_ft": 2400,
    "type": "medium_airport",
    "continent": null,
    "scheduled_service": true
  },
  {
    "icao": "KMDW",
    "iata": "MDW",
    "name": "Chicago Midway International Airport",
    "city": "Chicago",
    "state": "Illinois",
    "country": "United States",
    "latitude": 41.784,
    "longitude": -87.7535,
    "elevation_ft": 1957,
    "type": "medium_airport",
    "continent": null,
    "scheduled_service": true
  },
  {
    "icao": "KDAL",
    "iata": "DAL",
    "name": "Dallas Love Field",
    "city": "Dallas",
    "state": "Texas",
    "country": "United States",
    "latitude": 32.8471,
    "longitude": -96.8518,
    "elevation_ft": 2640,
    "type": "medium_airport",
    "continent": null,
    "scheduled_service": true
  },
  {
    "icao": "KHOU",
    "iata": "HOU",
    "name": "William P. Hobby Airport",
    "city": "Houston",
    "state": "Texas",
    "country": "United States",
    "latitude": 29.6454,
    "longitude": -95.2789,
    "elevation_ft": 2283,
    "type": "medium_airport",
    "continent": null,
    "scheduled_service": true
  },
  {
    "icao": "KBOS",
    "iata": "BOS",
    "name": "Logan International Airport",
    "city": "Boston",
    "state": "Massachusetts",
    "country": "United States",
    "latitude": 42.3656,
    "longitude": -71.0096,
    "elevation_ft": 3210,
    "type": "medium_airport",
    "continent": null,
    "scheduled_service": true
  },
  {
    "icao": "KDCA",
    "iata": "DCA",
    "name": "Ronald Reagan Washington National Airport",
    "city": "Arlington",
    "state": "Virginia",
    "country": "United States",
    "latitude": 38.8512,
    "longitude": -77.0402,
    "elevation_ft": 2061,
    "type": "medium_airport",
    "continent": null,
    "scheduled_service": true
  },
  {
    "icao": "KIAD",
    "iata": "IAD",
    "name": "Washington Dulles International Airport",
    "city": "Dulles",
    "state": "Virginia",
    "country": "United States",
    "latitude": 38.9445,
    "longitude": -77.4558,
    "elevation_ft": 3450,
    "type": "medium_airport",
    "continent": null,
    "scheduled_service": true
  },
  {
    "icao": "KBWI",
    "iata": "BWI",
    "name": "Baltimore/Washington International Thurgood Marshall Airport",
    "city": "Baltimore",
    "state": "Maryland",
    "country": "United States",
    "latitude": 39.1754,
    "longitude": -76.6683,
    "elevation_ft": 3150,
    "type": "medium_airport",
    "continent": null,
    "scheduled_service": true
  },
  {
    "icao": "KPHX",
    "iata": "PHX",
    "name": "Phoenix Sky Harbor International Airport",
    "city": "Phoenix",
    "state": "Arizona",
    "country": "United States",
    "latitude": 33.4484,
    "longitude": -112.074,
    "elevation_ft": 3447,
    "type": "medium_airport",
    "continent": null,
    "scheduled_service": true
  },
  {
    "icao": "KDEN",
    "iata": "DEN",
    "name": "Denver International Airport",
    "city": "Denver",
    "state": "Colorado",
    "country": "United States",
    "latitude": 39.8617,
    "longitude": -104.6731,
    "elevation_ft": 4800,
    "type": "medium_airport",
    "continent": null,
    "scheduled_service": true
  },
  {
    "icao": "KSLC",
    "iata": "SLC",
    "name": "Salt Lake City International Airport",
    "city": "Salt Lake City",
    "state": "Utah",
    "country": "United States",
    "latitude": 40.7899,
    "longitude": -111.9791,
    "elevation_ft": 3690,
    "type": "medium_airport",
    "continent": null,
    "scheduled_service": true
  },
  {
    "icao": "KDTW",
    "iata": "DTW",
    "name": "Detroit Metropolitan Wayne County Airport",
    "city": "Detroit",
    "state": "Michigan",
    "country": "United States",
    "latitude": 42.2124,
    "longitude": -83.3534,
    "elevation_ft": 3000,
    "type": "medium_airport",
    "continent": null,
    "scheduled_service": true
  },
  {
    "icao": "KMSP",
    "iata": "MSP",
    "name": "Minneapolis-Saint Paul International Airport",
    "city": "Minneapolis",
    "state": "Minnesota",
    "country": "United States",
    "latitude": 44.8848,
    "longitude": -93.2223,
    "elevation_ft": 3570,
    "type": "medium_airport",
    "continent": null,
    "scheduled_service": true
  },
  {
    "icao": "KCLT",
    "iata": "CLT",
    "name": "Charlotte Douglas International Airport",
    "city": "Charlotte",
    "state": "North Carolina",
    "country": "United States",
    "latitude": 35.2144,
    "longitude": -80.9473,
    "elevation_ft": 3120,
    "type": "medium_airport",
    "continent": null,
    "scheduled_service": true
  },
  {
    "icao": "KMCO",
    "iata": "MCO",
    "name": "Orlando International Airport",
    "city": "Orlando",
    "state": "Florida",
    "country": "United States",
    "latitude": 28.4312,
    "longitude": -81.3081,
    "elevation_ft": 3600,
    "type": "medium_airport",
    "continent": null,
    "scheduled_service": true
  },
  {
    "icao": "KTPA",
    "iata": "TPA",
    "name": "Tampa International Airport",
    "city": "Tampa",
    "state": "Florida",
    "country": "United States",
    "latitude": 27.9755,
    "longitude": -82.5332,
    "elevation_ft": 3450,
    "type": "medium_airport",
    "continent": null,
    "scheduled_service": true
  },
  {
    "icao": "KPBI",
    "iata": "PBI",
    "name": "Palm Beach International Airport",
    "city": "West Palm Beach",
    "state": "Florida",
    "country": "United States",
    "latitude": 26.6832,
    "longitude": -80.0956,
    "elevation_ft": 3002,
    "type": "medium_airport",
    "continent": null,
    "scheduled_service": true
  },
  {
    "icao": "KFLL",
    "iata": "FLL",
    "name": "Fort Lauderdale-Hollywood International Airport",
    "city": "Fort Lauderdale",
    "state": "Florida",
    "country": "United States",
    "latitude": 26.0742,
    "longitude": -80.1506,
    "elevation_ft": 2700,
    "type": "medium_airport",
    "continent": null,
    "scheduled_service": true
  },
  {
    "icao": "KSJC",
    "iata": "SJC",
    "name": "Norman Y. Mineta San José International Airport",
    "city": "San Jose",
    "state": "California",
    "country": "United States",
    "latitude": 37.3639,
    "longitude": -121.9289,
    "elevation_ft": 3389,
    "type": "medium_airport",
    "continent": null,
    "scheduled_service": true
  },
  {
    "icao": "KOAK",
    "iata": "OAK",
    "name": "Oakland International Airport",
    "city": "Oakland",
    "state": "California",
    "country": "United States",
    "latitude": 37.7214,
    "longitude": -122.2208,
    "elevation_ft": 3000,
    "type": "medium_airport",
    "continent": null,
    "scheduled_service": true
  },
  {
    "icao": "KSMF",
    "iata": "SMF",
    "name": "Sacramento International Airport",
    "city": "Sacramento",
    "state": "California",
    "country": "United States",
    "latitude": 38.6954,
    "longitude": -121.5906,
    "elevation_ft": 2580,
    "type": "medium_airport",
    "continent": null,
    "scheduled_service": true
  },
  {
    "icao": "KSDU",
    "iata": "SDU",
    "name": "Santos Dumont Airport",
    "city": "Rio de Janeiro",
    "state": "Rio de Janeiro",
    "country": "Brazil",
    "latitude": -22.9103,
    "longitude": -43.1631,
    "elevation_ft": 1302,
    "type": "medium_airport",
    "continent": null,
    "scheduled_service": true
  },
  {
    "icao": "EGKK",
    "iata": "LGW",
    "name": "London Gatwick Airport",
    "city": "London",
    "state": null,
    "country": "United Kingdom",
    "latitude": 51.1537,
    "longitude": -0.1821,
    "elevation_ft": 3264,
    "type": "medium_airport",
    "continent": null,
    "scheduled_service": true
  },
  {
    "icao": "EGLL",
    "iata": "LHR",
    "name": "London Heathrow Airport",
    "city": "London",
    "state": null,
    "country": "United Kingdom",
    "latitude": 51.47,
    "longitude": -0.4543,
    "elevation_ft": 3840,
    "type": "medium_airport",
    "continent": null,
    "scheduled_service": true
  },
  {
    "icao": "EGLF",
    "iata": "FAB",
    "name": "Farnborough Airport",
    "city": "Farnborough",
    "state": null,
    "country": "United Kingdom",
    "latitude": 51.2835,
    "longitude": -0.765,
    "elevation_ft": 2415,
    "type": "medium_airport",
    "continent": null,
    "scheduled_service": true
  },
  {
    "icao": "EGLB",
    "iata": "BQH",
    "name": "London Biggin Hill Airport",
    "city": "London",
    "state": null,
    "country": "United Kingdom",
    "latitude": 51.3309,
    "longitude": -0.0325,
    "elevation_ft": 1772,
    "type": "medium_airport",
    "continent": null,
    "scheduled_service": true
  },
  {
    "icao": "LFPG",
    "iata": "CDG",
    "name": "Charles de Gaulle Airport",
    "city": "Paris",
    "state": null,
    "country": "France",
    "latitude": 49.0097,
    "longitude": 2.5479,
    "elevation_ft": 4134,
    "type": "medium_airport",
    "continent": null,
    "scheduled_service": true
  },
  {
    "icao": "LFPB",
    "iata": "LBG",
    "name": "Paris-Le Bourget Airport",
    "city": "Paris",
    "state": null,
    "country": "France",
    "latitude": 48.9694,
    "longitude": 2.4414,
    "elevation_ft": 2657,
    "type": "medium_airport",
    "continent": null,
    "scheduled_service": true
  },
  {
    "icao": "EDDF",
    "iata": "FRA",
    "name": "Frankfurt Airport",
    "city": "Frankfurt",
    "state": null,
    "country": "Germany",
    "latitude": 50.0379,
    "longitude": 8.5622,
    "elevation_ft": 3937,
    "type": "medium_airport",
    "continent": null,
    "scheduled_service": true
  },
  {
    "icao": "EDDH",
    "iata": "HAM",
    "name": "Hamburg Airport",
    "city": "Hamburg",
    "state": null,
    "country": "Germany",
    "latitude": 53.6304,
    "longitude": 9.9883,
    "elevation_ft": 3718,
    "type": "medium_airport",
    "continent": null,
    "scheduled_service": true
  },
  {
    "icao": "EHAM",
    "iata": "AMS",
    "name": "Amsterdam Airport Schiphol",
    "city": "Amsterdam",
    "state": null,
    "country": "Netherlands",
    "latitude": 52.3105,
    "longitude": 4.7683,
    "elevation_ft": 3567,
    "type": "medium_airport",
    "continent": null,
    "scheduled_service": true
  },
  {
    "icao": "LSZH",
    "iata": "ZRH",
    "name": "Zurich Airport",
    "city": "Zurich",
    "state": null,
    "country": "Switzerland",
    "latitude": 47.4647,
    "longitude": 8.5492,
    "elevation_ft": 3674,
    "type": "medium_airport",
    "continent": null,
    "scheduled_service": true
  },
  {
    "icao": "LIRF",
    "iata": "FCO",
    "name": "Leonardo da Vinci–Fiumicino Airport",
    "city": "Rome",
    "state": null,
    "country": "Italy",
    "latitude": 41.8003,
    "longitude": 12.2389,
    "elevation_ft": 3853,
    "type": "medium_airport",
    "continent": null,
    "scheduled_service": true
  },
  {
    "icao": "LIMC",
    "iata": "MXP",
    "name": "Milan Malpensa Airport",
    "city": "Milan",
    "state": null,
    "country": "Italy",
    "latitude": 45.6306,
    "longitude": 8.7281,
    "elevation_ft": 3853,
    "type": "medium_airport",
    "continent": null,
    "scheduled_service": true
  },
  {
    "icao": "LEMD",
    "iata": "MAD",
    "name": "Adolfo Suárez Madrid–Barajas Airport",
    "city": "Madrid",
    "state": null,
    "country": "Spain",
    "latitude": 40.4719,
    "longitude": -3.5626,
    "elevation_ft": 4230,
    "type": "medium_airport",
    "continent": null,
    "scheduled_service": true
  },
  {
    "icao": "LEBL",
    "iata": "BCN",
    "name": "Barcelona–El Prat Airport",
    "city": "Barcelona",
    "state": null,
    "country": "Spain",
    "latitude": 41.2971,
    "longitude": 2.0785,
    "elevation_ft": 3248,
    "type": "medium_airport",
    "continent": null,
    "scheduled_service": true
  },
  {
    "icao": "UUEE",
    "iata": "SVO",
    "name": "Sheremetyevo International Airport",
    "city": "Moscow",
    "state": null,
    "country": "Russia",
    "latitude": 55.9726,
    "longitude": 37.4146,
    "elevation_ft": 3740,
    "type": "medium_airport",
    "continent": null,
    "scheduled_service": true
  },
  {
    "icao": "UUWW",
    "iata": "VKO",
    "name": "Vnukovo International Airport",
    "city": "Moscow",
    "state": null,
    "country": "Russia",
    "latitude": 55.5914,
    "longitude": 37.2615,
    "elevation_ft": 3545,
    "type": "medium_airport",
    "continent": null,
    "scheduled_service": true
  },
  {
    "icao": "OMDB",
    "iata": "DXB",
    "name": "Dubai International Airport",
    "city": "Dubai",
    "state": null,
    "country": "United Arab Emirates",
    "latitude": 25.2532,
    "longitude": 55.3657,
    "elevation_ft": 4399,
    "type": "medium_airport",
    "continent": null,
    "scheduled_service": true
  },
  {
    "icao": "OMDW",
    "iata": "DWC",
    "name": "Al Maktoum International Airport",
    "city": "Dubai",
    "state": null,
    "country": "United Arab Emirates",
    "latitude": 24.8935,
    "longitude": 55.1543,
    "elevation_ft": 4440,
    "type": "medium_airport",
    "continent": null,
    "scheduled_service": true
  },
  {
    "icao": "OTBD",
    "iata": "DOH",
    "name": "Hamad International Airport",
    "city": "Doha",
    "state": null,
    "country": "Qatar",
    "latitude": 25.2731,
    "longitude": 51.6088,
    "elevation_ft": 4770,
    "type": "medium_airport",
    "continent": null,
    "scheduled_service": true
  },
  {
    "icao": "OKBK",
    "iata": "KWI",
    "name": "Kuwait International Airport",
    "city": "Kuwait City",
    "state": null,
    "country": "Kuwait",
    "latitude": 29.2267,
    "longitude": 47.9689,
    "elevation_ft": 3449,
    "type": "medium_airport",
    "continent": null,
    "scheduled_service": true
  },
  {
    "icao": "OEJN",
    "iata": "JED",
    "name": "King Abdulaziz International Airport",
    "city": "Jeddah",
    "state": null,
    "country": "Saudi Arabia",
    "latitude": 21.6796,
    "longitude": 39.1564,
    "elevation_ft": 3740,
    "type": "medium_airport",
    "continent": null,
    "scheduled_service": true
  },
  {
    "icao": "OERK",
    "iata": "RUH",
    "name": "King Khalid International Airport",
    "city": "Riyadh",
    "state": null,
    "country": "Saudi Arabia",
    "latitude": 24.9576,
    "longitude": 46.6988,
    "elevation_ft": 4134,
    "type": "medium_airport",
    "continent": null,
    "scheduled_service": true
  },
  {
    "icao": "VABB",
    "iata": "BOM",
    "name": "Chhatrapati Shivaji Maharaj International Airport",
    "city": "Mumbai",
    "state": null,
    "country": "India",
    "latitude": 19.0896,
    "longitude": 72.8656,
    "elevation_ft": 3750,
    "type": "medium_airport",
    "continent": null,
    "scheduled_service": true
  },
  {
    "icao": "VIDP",
    "iata": "DEL",
    "name": "Indira Gandhi International Airport",
    "city": "New Delhi",
    "state": null,
    "country": "India",
    "latitude": 28.5665,
    "longitude": 77.1031,
    "elevation_ft": 4290,
    "type": "medium_airport",
    "continent": null,
    "scheduled_service": true
  },
  {
    "icao": "VCCB",
    "iata": "BLR",
    "name": "Kempegowda International Airport",
    "city": "Bengaluru",
    "state": null,
    "country": "India",
    "latitude": 13.1986,
    "longitude": 77.7066,
    "elevation_ft": 3937,
    "type": "medium_airport",
    "continent": null,
    "scheduled_service": true
  },
  {
    "icao": "VOCI",
    "iata": "COK",
    "name": "Cochin International Airport",
    "city": "Kochi",
    "state": null,
    "country": "India",
    "latitude": 10.152,
    "longitude": 76.4019,
    "elevation_ft": 3420,
    "type": "medium_airport",
    "continent": null,
    "scheduled_service": true
  },
  {
    "icao": "WSSS",
    "iata": "SIN",
    "name": "Singapore Changi Airport",
    "city": "Singapore",
    "state": null,
    "country": "Singapore",
    "latitude": 1.3644,
    "longitude": 103.9915,
    "elevation_ft": 3937,
    "type": "medium_airport",
    "continent": null,
    "scheduled_service": true
  },
  {
    "icao": "RJTT",
    "iata": "NRT",
    "name": "Narita International Airport",
    "city": "Tokyo",
    "state": null,
    "country": "Japan",
    "latitude": 35.7653,
    "longitude": 140.3864,
    "elevation_ft": 3937,
    "type": "medium_airport",
    "continent": null,
    "scheduled_service": true
  },
  {
    "icao": "RJAA",
    "iata": "HND",
    "name": "Haneda Airport",
    "city": "Tokyo",
    "state": null,
    "country": "Japan",
    "latitude": 35.5533,
    "longitude": 139.7811,
    "elevation_ft": 2953,
    "type": "medium_airport",
    "continent": null,
    "scheduled_service": true
  },
  {
    "icao": "RKSI",
    "iata": "ICN",
    "name": "Incheon International Airport",
    "city": "Seoul",
    "state": null,
    "country": "South Korea",
    "latitude": 37.4631,
    "longitude": 126.4406,
    "elevation_ft": 3937,
    "type": "medium_airport",
    "continent": null,
    "scheduled_service": true
  },
  {
    "icao": "RCKH",
    "iata": "KHH",
    "name": "Kaohsiung International Airport",
    "city": "Kaohsiung",
    "state": null,
    "country": "Taiwan",
    "latitude": 22.5771,
    "longitude": 120.35,
    "elevation_ft": 3105,
    "type": "medium_airport",
    "continent": null,
    "scheduled_service": true
  },
  {
    "icao": "RCTP",
    "iata": "TPE",
    "name": "Taiwan Taoyuan International Airport",
    "city": "Taipei",
    "state": null,
    "country": "Taiwan",
    "latitude": 25.0777,
    "longitude": 121.2328,
    "elevation_ft": 3740,
    "type": "medium_airport",
    "continent": null,
    "scheduled_service": true
  },
  {
    "icao": "YSSY",
    "iata": "SYD",
    "name": "Sydney Kingsford Smith Airport",
    "city": "Sydney",
    "state": null,
    "country": "Australia",
    "latitude": -33.9461,
    "longitude": 151.1772,
    "elevation_ft": 3937,
    "type": "medium_airport",
    "continent": null,
    "scheduled_service": true
  },
  {
    "icao": "YMML",
    "iata": "MEL",
    "name": "Melbourne Airport",
    "city": "Melbourne",
    "state": null,
    "country": "Australia",
    "latitude": -37.669,
    "longitude": 144.841,
    "elevation_ft": 3645,
    "type": "medium_airport",
    "continent": null,
    "scheduled_service": true
  },
  {
    "icao": "YBBN",
    "iata": "BNE",
    "name": "Brisbane Airport",
    "city": "Brisbane",
    "state": null,
    "country": "Australia",
    "latitude": -27.3942,
    "longitude": 153.1173,
    "elevation_ft": 3425,
    "type": "medium_airport",
    "continent": null,
    "scheduled_service": true
  },
  {
    "icao": "CYYZ",
    "iata": "YYZ",
    "name": "Toronto Pearson International Airport",
    "city": "Toronto",
    "state": "Ontario",
    "country": "Canada",
    "latitude": 43.6777,
    "longitude": -79.6248,
    "elevation_ft": 3315,
    "type": "medium_airport",
    "continent": null,
    "scheduled_service": true
  },
  {
    "icao": "CYVR",
    "iata": "YVR",
    "name": "Vancouver International Airport",
    "city": "Vancouver",
    "state": "British Columbia",
    "country": "Canada",
    "latitude": 49.1967,
    "longitude": -123.1815,
    "elevation_ft": 3300,
    "type": "medium_airport",
    "continent": null,
    "scheduled_service": true
  },
  {
    "icao": "CYUL",
    "iata": "YUL",
    "name": "Montréal–Trudeau International Airport",
    "city": "Montreal",
    "state": "Quebec",
    "country": "Canada",
    "latitude": 45.4706,
    "longitude": -73.7408,
    "elevation_ft": 3300,
    "type": "medium_airport",
    "continent": null,
    "scheduled_service": true
  },
  {
    "icao": "CYYC",
    "iata": "YYC",
    "name": "Calgary International Airport",
    "city": "Calgary",
    "state": "Alberta",
    "country": "Canada",
    "latitude": 51.1309,
    "longitude": -114.0199,
    "elevation_ft": 3740,
    "type": "medium_airport",
    "continent": null,
    "scheduled_service": true
  },
  {
    "icao": "MMMX",
    "iata": "MEX",
    "name": "Mexico City International Airport",
    "city": "Mexico City",
    "state": null,
    "country": "Mexico",
    "latitude": 19.4363,
    "longitude": -99.0721,
    "elevation_ft": 3937,
    "type": "medium_airport",
    "continent": null,
    "scheduled_service": true
  },
  {
    "icao": "MUGM",
    "iata": "GUM",
    "name": "Antonio B. Won Pat International Airport",
    "city": "Hagåtña",
    "state": null,
    "country": "Guam",
    "latitude": 13.4834,
    "longitude": 144.7958,
    "elevation_ft": 3000,
    "type": "medium_airport",
    "continent": null,
    "scheduled_service": true
  },
  {
    "icao": "TNCM",
    "iata": "SXM",
    "name": "Princess Juliana International Airport",
    "city": "Philipsburg",
    "state": null,
    "country": "Sint Maarten",
    "latitude": 18.047,
    "longitude": -63.1095,
    "elevation_ft": 2264,
    "type": "medium_airport",
    "continent": null,
    "scheduled_service": true
  },
  {
    "icao": "TBPB",
    "iata": "BGI",
    "name": "Grantley Adams International Airport",
    "city": "Bridgetown",
    "state": null,
    "country": "Barbados",
    "latitude": 13.0733,
    "longitude": -59.4939,
    "elevation_ft": 3300,
    "type": "medium_airport",
    "continent": null,
    "scheduled_service": true
  },
  {
    "icao": "TNCC",
    "iata": "CUR",
    "name": "Curaçao International Airport",
    "city": "Willemstad",
    "state": null,
    "country": "Curaçao",
    "latitude": 12.1903,
    "longitude": -68.959,
    "elevation_ft": 3330,
    "type": "medium_airport",
    "continent": null,
    "scheduled_service": true
  }
]