[
  {
    "icao": "KTEB",
    "iata": "TEB",
    "name": "Teterboro Airport",
    "city": "Teterboro",
    "state": "New Jersey",
    "country": "United States",
    "latitude": 40.8502,
    "longitude": -74.0545,
    "timezone": "America/New_York",
    "is_corporate_hub": true,
    "popularity_score": 100,
    "aircraft_types": [
      "business_jet",
      "turboprop"
    ],
    "facilities": [
      "fbo",
      "customs",
      "charter"
    ],
    "runway_count": 2,
    "longest_runway_ft": 7009
  },
  {
    "icao": "KHPN",
    "iata": "HPN",
    "name": "Westchester County Airport",
    "city": "White Plains",
    "state": "New York",
    "country": "United States",
    "latitude": 41.067,
    "longitude": -73.7075,
    "timezone": "America/New_York",
    "is_corporate_hub": true,
    "popularity_score": 95,
    "aircraft_types": [
      "business_jet",
      "turboprop"
    ],
    "facilities": [
      "fbo",
      "customs"
    ],
    "runway_count": 2,
    "longest_runway_ft": 6523
  },
  {
    "icao": "LFPB",
    "iata": "LBG",
    "name": "Paris-Le Bourget Airport",
    "city": "Paris",
    "country": "France",
    "latitude": 48.9694,
    "longitude": 2.4414,
    "timezone": "Europe/Paris",
    "is_corporate_hub": true,
    "popularity_score": 95,
    "aircraft_types": [
      "business_jet",
      "turboprop"
    ],
    "facilities": [
      "fbo",
      "customs"
    ],
    "runway_count": 3,
    "longest_runway_ft": 8858
  },
  {
    "icao": "KMDW",
    "iata": "MDW",
    "name": "Chicago Midway International Airport",
    "city": "Chicago",
    "state": "Illinois",
    "country": "United States",
    "latitude": 41.784,
    "longitude": -87.7535,
    "timezone": "America/Chicago",
    "is_corporate_hub": true,
    "popularity_score": 94,
    "aircraft_types": [
      "business_jet",
      "turboprop"
    ],
    "facilities": [
      "fbo",
      "customs"
    ],
    "runway_count": 3,
    "longest_runway_ft": 6522
  },
  {
    "icao": "KBUR",
    "iata": "BUR",
    "name": "Hollywood Burbank Airport",
    "city": "Burbank",
    "state": "California",
    "country": "United States",
    "latitude": 34.2007,
    "longitude": -118.3586,
    "timezone": "America/Los_Angeles",
    "is_corporate_hub": true,
    "popularity_score": 92,
    "aircraft_types": [
      "business_jet",
      "turboprop"
    ],
    "facilities": [
      "fbo",
      "customs"
    ],
    "runway_count": 2,
    "longest_runway_ft": 6888
  },
  {
    "icao": "EGLF",
    "iata": "FAB",
    "name": "Farnborough Airport",
    "city": "Farnborough",
    "country": "United Kingdom",
    "latitude": 51.2835,
    "longitude": -0.765,
    "timezone": "Europe/London",
    "is_corporate_hub": true,
    "popularity_score": 92,
    "aircraft_types": [
      "business_jet",
      "turboprop"
    ],
    "facilities": [
      "fbo",
      "customs"
    ],
    "runway_count": 1,
    "longest_runway_ft": 8051
  },
  {
    "icao": "KFXE",
    "iata": "FXE",
    "name": "Fort Lauderdale Executive Airport",
    "city": "Fort Lauderdale",
    "state": "Florida",
    "country": "United States",
    "latitude": 26.197,
    "longitude": -80.1705,
    "timezone": "America/New_York",
    "is_corporate_hub": true,
    "popularity_score": 91,
    "aircraft_types": [
      "business_jet",
      "turboprop",
      "helicopter"
    ],
    "facilities": [
      "fbo",
      "customs",
      "charter"
    ],
    "runway_count": 2,
    "longest_runway_ft": 6000
  },
  {
    "icao": "KADS",
    "iata": "ADS",
    "name": "Addison Airport",
    "city": "Addison",
    "state": "Texas",
    "country": "United States",
    "latitude": 32.9676,
    "longitude": -96.8355,
    "timezone": "America/Chicago",
    "is_corporate_hub": true,
    "popularity_score": 90,
    "aircraft_types": [
      "business_jet",
      "turboprop",
      "helicopter"
    ],
    "facilities": [
      "fbo",
      "charter"
    ],
    "runway_count": 2,
    "longest_runway_ft": 7200
  },
  {
    "icao": "EGLB",
    "iata": "BQH",
    "name": "London Biggin Hill Airport",
    "city": "London",
    "country": "United Kingdom",
    "latitude": 51.3309,
    "longitude": -0.0325,
    "timezone": "Europe/London",
    "is_corporate_hub": true,
    "popularity_score": 89,
    "aircraft_types": [
      "business_jet",
      "turboprop"
    ],
    "facilities": [
      "fbo",
      "customs"
    ],
    "runway_count": 2,
    "longest_runway_ft": 5906
  },
  {
    "icao": "KRYY",
    "iata": "RYY",
    "name": "Cobb County International Airport - McCollum Field",
    "city": "Marietta",
    "state": "Georgia",
    "country": "United States",
    "latitude": 33.9795,
    "longitude": -84.6655,
    "timezone": "America/New_York",
    "is_corporate_hub": true,
    "popularity_score": 88,
    "aircraft_types": [
      "business_jet",
      "turboprop"
    ],
    "facilities": [
      "fbo",
      "customs"
    ],
    "runway_count": 2,
    "longest_runway_ft": 6305
  },
  {
    "icao": "KOPF",
    "iata": "OPF",
    "name": "Opa-locka Executive Airport",
    "city": "Miami",
    "state": "Florida",
    "country": "United States",
    "latitude": 25.9096,
    "longitude": -80.2805,
    "timezone": "America/New_York",
    "is_corporate_hub": true,
    "popularity_score": 86,
    "aircraft_types": [
      "business_jet",
      "turboprop",
      "helicopter"
    ],
    "facilities": [
      "fbo",
      "customs"
    ],
    "runway_count": 3,
    "longest_runway_ft": 8000
  },
  {
    "icao": "KATL",
    "iata": "ATL",
    "name": "Hartsfield-Jackson Atlanta International Airport",
    "city": "Atlanta",
    "state": "Georgia",
    "country": "United States",
    "latitude": 33.6407,
    "longitude": -84.4277,
    "timezone": "America/New_York",
    "is_corporate_hub": false,
    "popularity_score": 50,
    "aircraft_types": [
      "commercial",
      "regional"
    ],
    "facilities": [
      "fbo"
    ],
    "runway_count": 1,
    "longest_runway_ft": 8000
  },
  {
    "icao": "KDFW",
    "iata": "DFW",
    "name": "Dallas/Fort Worth International Airport",
    "city": "Dallas",
    "state": "Texas",
    "country": "United States",
    "latitude": 32.8998,
    "longitude": -97.0403,
    "timezone": "America/Chicago",
    "is_corporate_hub": false,
    "popularity_score": 50,
    "aircraft_types": [
      "commercial",
      "regional"
    ],
    "facilities": [
      "fbo"
    ],
    "runway_count": 1,
    "longest_runway_ft": 8000
  },
  {
    "icao": "KLAX",
    "iata": "LAX",
    "name": "Los Angeles International Airport",
    "city": "Los Angeles",
    "state": "California",
    "country": "United States",
    "latitude": 33.9416,
    "longitude": -118.4085,
    "timezone": "America/Los_Angeles",
    "is_corporate_hub": false,
    "popularity_score": 50,
    "aircraft_types": [
      "commercial",
      "regional"
    ],
    "facilities": [
      "fbo"
    ],
    "runway_count": 1,
    "longest_runway_ft": 8000
  },
  {
    "icao": "KORD",
    "iata": "ORD",
    "name": "Chicago O'Hare International Airport",
    "city": "Chicago",
    "state": "Illinois",
    "country": "United States",
    "latitude": 41.9742,
    "longitude": -87.9073,
    "timezone": "America/Chicago",
    "is_corporate_hub": false,
    "popularity_score": 50,
    "aircraft_types": [
      "commercial",
      "regional"
    ],
    "facilities": [
      "fbo"
    ],
    "runway_count": 1,
    "longest_runway_ft": 8000
  },
  {
    "icao": "KJFK",
    "iata": "JFK",
    "name": "John F. Kennedy International Airport",
    "city": "New York",
    "state": "New York",
    "country": "United States",
    "latitude": 40.6413,
    "longitude": -73.7781,
    "timezone": "America/New_York",
    "is_corporate_hub": false,
    "popularity_score": 50,
    "aircraft_types": [
      "commercial",
      "regional"
    ],
    "facilities": [
      "fbo"
    ],
    "runway_count": 1,
    "longest_runway_ft": 8000
  },
  {
    "icao": "KLAS",
    "iata": "LAS",
    "name": "Harry Reid International Airport",
    "city": "Las Vegas",
    "state": "Nevada",
    "country": "United States",
    "latitude": 36.084,
    "longitude": -115.1537,
    "timezone": "America/Los_Angeles",
    "is_corporate_hub": false,
    "popularity_score": 50,
    "aircraft_types": [
      "commercial",
      "regional"
    ],
    "facilities": [
      "fbo"
    ],
    "runway_count": 1,
    "longest_runway_ft": 8000
  },
  {
    "icao": "KMIA",
    "iata": "MIA",
    "name": "Miami International Airport",
    "city": "Miami",
    "state": "Florida",
    "country": "United States",
    "latitude": 25.7959,
    "longitude": -80.287,
    "timezone": "America/New_York",
    "is_corporate_hub": false,
    "popularity_score": 50,
    "aircraft_types": [
      "commercial",
      "regional"
    ],
    "facilities": [
      "fbo"
    ],
    "runway_count": 1,
    "longest_runway_ft": 8000
  },
  {
    "icao": "KSFO",
    "iata": "SFO",
    "name": "San Francisco International Airport",
    "city": "San Francisco",
    "state": "California",
    "country": "United States",
    "latitude": 37.6213,
    "longitude": -122.379,
    "timezone": "America/Los_Angeles",
    "is_corporate_hub": false,
    "popularity_score": 50,
    "aircraft_types": [
      "commercial",
      "regional"
    ],
    "facilities": [
      "fbo"
    ],
    "runway_count": 1,
    "longest_runway_ft": 8000
  },
  {
    "icao": "KSEA",
    "iata": "SEA",
    "name": "Seattle-Tacoma International Airport",
    "city": "Seattle",
    "state": "Washington",
    "country": "United States",
    "latitude": 47.4502,
    "longitude": -122.3088,
    "timezone": "America/Los_Angeles",
    "is_corporate_hub": false,
    "popularity_score": 50,
    "aircraft_types": [
      "commercial",
      "regional"
    ],
    "facilities": [
      "fbo"
    ],
    "runway_count": 1,
    "longest_runway_ft": 8000
  },
  {
    "icao": "KDEN",
    "iata": "DEN",
    "name": "Denver International Airport",
    "city": "Denver",
    "state": "Colorado",
    "country": "United States",
    "latitude": 39.8561,
    "longitude": -104.6737,
    "timezone": "America/Denver",
    "is_corporate_hub": false,
    "popularity_score": 50,
    "aircraft_types": [
      "commercial",
      "regional"
    ],
    "facilities": [
      "fbo"
    ],
    "runway_count": 1,
    "longest_runway_ft": 8000
  },
  {
    "icao": "EGLL",
    "iata": "LHR",
    "name": "London Heathrow Airport",
    "city": "London",
    "country": "United Kingdom",
    "latitude": 51.47,
    "longitude": -0.4543,
    "timezone": "Europe/London",
    "is_corporate_hub": false,
    "popularity_score": 50,
    "aircraft_types": [
      "commercial",
      "regional"
    ],
    "facilities": [
      "fbo"
    ],
    "runway_count": 1,
    "longest_runway_ft": 8000
  },
  {
    "icao": "EGKK",
    "iata": "LGW",
    "name": "London Gatwick Airport",
    "city": "London",
    "country": "United Kingdom",
    "latitude": 51.1481,
    "longitude": -0.1903,
    "timezone": "Europe/London",
    "is_corporate_hub": false,
    "popularity_score": 50,
    "aircraft_types": [
      "commercial",
      "regional"
    ],
    "facilities": [
      "fbo"
    ],
    "runway_count": 1,
    "longest_runway_ft": 8000
  },
  {
    "icao": "EHAM",
    "iata": "AMS",
    "name": "Amsterdam Airport Schiphol",
    "city": "Amsterdam",
    "country": "Netherlands",
    "latitude": 52.3105,
    "longitude": 4.7683,
    "timezone": "Europe/Amsterdam",
    "is_corporate_hub": false,
    "popularity_score": 50,
    "aircraft_types": [
      "commercial",
      "regional"
    ],
    "facilities": [
      "fbo"
    ],
    "runway_count": 1,
    "longest_runway_ft": 8000
  },
  {
    "icao": "LFPG",
    "iata": "CDG",
    "name": "Charles de Gaulle Airport",
    "city": "Paris",
    "country": "France",
    "latitude": 49.0097,
    "longitude": 2.5479,
    "timezone": "Europe/Paris",
    "is_corporate_hub": false,
    "popularity_score": 50,
    "aircraft_types": [
      "commercial",
      "regional"
    ],
    "facilities": [
      "fbo"
    ],
    "runway_count": 1,
    "longest_runway_ft": 8000
  },
  {
    "icao": "EDDF",
    "iata": "FRA",
    "name": "Frankfurt Airport",
    "city": "Frankfurt",
    "country": "Germany",
    "latitude": 50.0379,
    "longitude": 8.5622,
    "timezone": "Europe/Berlin",
    "is_corporate_hub": false,
    "popularity_score": 50,
    "aircraft_types": [
      "commercial",
      "regional"
    ],
    "facilities": [
      "fbo"
    ],
    "runway_count": 1,
    "longest_runway_ft": 8000
  },
  {
    "icao": "EDDM",
    "iata": "MUC",
    "name": "Munich Airport",
    "city": "Munich",
    "country": "Germany",
    "latitude": 48.3538,
    "longitude": 11.7861,
    "timezone": "Europe/Berlin",
    "is_corporate_hub": false,
    "popularity_score": 50,
    "aircraft_types": [
      "commercial",
      "regional"
    ],
    "facilities": [
      "fbo"
    ],
    "runway_count": 1,
    "longest_runway_ft": 8000
  },
  {
    "icao": "LIRF",
    "iata": "FCO",
    "name": "Leonardo da Vinci-Fiumicino Airport",
    "city": "Rome",
    "country": "Italy",
    "latitude": 41.8003,
    "longitude": 12.2389,
    "timezone": "Europe/Rome",
    "is_corporate_hub": false,
    "popularity_score": 50,
    "aircraft_types": [
      "commercial",
      "regional"
    ],
    "facilities": [
      "fbo"
    ],
    "runway_count": 1,
    "longest_runway_ft": 8000
  },
  {
    "icao": "LEMD",
    "iata": "MAD",
    "name": "Adolfo Suárez Madrid–Barajas Airport",
    "city": "Madrid",
    "country": "Spain",
    "latitude": 40.4719,
    "longitude": -3.5626,
    "timezone": "Europe/Madrid",
    "is_corporate_hub": false,
    "popularity_score": 50,
    "aircraft_types": [
      "commercial",
      "regional"
    ],
    "facilities": [
      "fbo"
    ],
    "runway_count": 1,
    "longest_runway_ft": 8000
  },
  {
    "icao": "LSZH",
    "iata": "ZRH",
    "name": "Zurich Airport",
    "city": "Zurich",
    "country": "Switzerland",
    "latitude": 47.4647,
    "longitude": 8.5494,
    "timezone": "Europe/Zurich",
    "is_corporate_hub": false,
    "popularity_score": 50,
    "aircraft_types": [
      "commercial",
      "regional"
    ],
    "facilities": [
      "fbo"
    ],
    "runway_count": 1,
    "longest_runway_ft": 8000
  },
  {
    "icao": "EICK",
    "iata": "DUB",
    "name": "Dublin Airport",
    "city": "Dublin",
    "country": "Ireland",
    "latitude": 53.4261,
    "longitude": -6.2498,
    "timezone": "Europe/Dublin",
    "is_corporate_hub": false,
    "popularity_score": 50,
    "aircraft_types": [
      "commercial",
      "regional"
    ],
    "facilities": [
      "fbo"
    ],
    "runway_count": 1,
    "longest_runway_ft": 8000
  },
  {
    "icao": "VIDP",
    "iata": "DEL",
    "name": "Indira Gandhi International Airport",
    "city": "New Delhi",
    "country": "India",
    "latitude": 28.5562,
    "longitude": 77.1,
    "timezone": "Asia/Kolkata",
    "is_corporate_hub": false,
    "popularity_score": 50,
    "aircraft_types": [
      "commercial",
      "regional"
    ],
    "facilities": [
      "fbo"
    ],
    "runway_count": 1,
    "longest_runway_ft": 8000
  },
  {
    "icao": "VABB",
    "iata": "BOM",
    "name": "Chhatrapati Shivaji Maharaj International Airport",
    "city": "Mumbai",
    "country": "India",
    "latitude": 19.0896,
    "longitude": 72.8656,
    "timezone": "Asia/Kolkata",
    "is_corporate_hub": false,
    "popularity_score": 50,
    "aircraft_types": [
      "commercial",
      "regional"
    ],
    "facilities": [
      "fbo"
    ],
    "runway_count": 1,
    "longest_runway_ft": 8000
  },
  {
    "icao": "VECC",
    "iata": "CCU",
    "name": "Netaji Subhash Chandra Bose International Airport",
    "city": "Kolkata",
    "country": "India",
    "latitude": 22.6547,
    "longitude": 88.4467,
    "timezone": "Asia/Kolkata",
    "is_corporate_hub": false,
    "popularity_score": 50,
    "aircraft_types": [
      "commercial",
      "regional"
    ],
    "facilities": [
      "fbo"
    ],
    "runway_count": 1,
    "longest_runway_ft": 8000
  },
  {
    "icao": "VOBL",
    "iata": "BLR",
    "name": "Kempegowda International Airport",
    "city": "Bengaluru",
    "country": "India",
    "latitude": 13.1999,
    "longitude": 77.7103,
    "timezone": "Asia/Kolkata",
    "is_corporate_hub": false,
    "popularity_score": 50,
    "aircraft_types": [
      "commercial",
      "regional"
    ],
    "facilities": [
      "fbo"
    ],
    "runway_count": 1,
    "longest_runway_ft": 8000
  },
  {
    "icao": "VOMM",
    "iata": "MAA",
    "name": "Chennai International Airport",
    "city": "Chennai",
    "country": "India",
    "latitude": 12.9821,
    "longitude": 80.1634,
    "timezone": "Asia/Kolkata",
    "is_corporate_hub": false,
    "popularity_score": 50,
    "aircraft_types": [
      "commercial",
      "regional"
    ],
    "facilities": [
      "fbo"
    ],
    "runway_count": 1,
    "longest_runway_ft": 8000
  },
  {
    "icao": "WMMM",
    "iata": "KUL",
    "name": "Kuala Lumpur International Airport",
    "city": "Kuala Lumpur",
    "country": "Malaysia",
    "latitude": 2.7545,
    "longitude": 101.7012,
    "timezone": "Asia/Kuala_Lumpur",
    "is_corporate_hub": false,
    "popularity_score": 50,
    "aircraft_types": [
      "commercial",
      "regional"
    ],
    "facilities": [
      "fbo"
    ],
    "runway_count": 1,
    "longest_runway_ft": 8000
  },
  {
    "icao": "WSAP",
    "iata": "SIN",
    "name": "Singapore Changi Airport",
    "city": "Singapore",
    "country": "Singapore",
    "latitude": 1.3644,
    "longitude": 103.9915,
    "timezone": "Asia/Singapore",
    "is_corporate_hub": false,
    "popularity_score": 50,
    "aircraft_types": [
      "commercial",
      "regional"
    ],
    "facilities": [
      "fbo"
    ],
    "runway_count": 1,
    "longest_runway_ft": 8000
  },
  {
    "icao": "RJAA",
    "iata": "NRT",
    "name": "Narita International Airport",
    "city": "Tokyo",
    "country": "Japan",
    "latitude": 35.7653,
    "longitude": 140.3864,
    "timezone": "Asia/Tokyo",
    "is_corporate_hub": false,
    "popularity_score": 50,
    "aircraft_types": [
      "commercial",
      "regional"
    ],
    "facilities": [
      "fbo"
    ],
    "runway_count": 1,
    "longest_runway_ft": 8000
  },
  {
    "icao": "RJBB",
    "iata": "KIX",
    "name": "Kansai International Airport",
    "city": "Osaka",
    "country": "Japan",
    "latitude": 34.4273,
    "longitude": 135.244,
    "timezone": "Asia/Tokyo",
    "is_corporate_hub": false,
    "popularity_score": 50,
    "aircraft_types": [
      "commercial",
      "regional"
    ],
    "facilities": [
      "fbo"
    ],
    "runway_count": 1,
    "longest_runway_ft": 8000
  },
  {
    "icao": "RKSI",
    "iata": "ICN",
    "name": "Incheon International Airport",
    "city": "Seoul",
    "country": "South Korea",
    "latitude": 37.4602,
    "longitude": 126.4407,
    "timezone": "Asia/Seoul",
    "is_corporate_hub": false,
    "popularity_score": 50,
    "aircraft_types": [
      "commercial",
      "regional"
    ],
    "facilities": [
      "fbo"
    ],
    "runway_count": 1,
    "longest_runway_ft": 8000
  },
  {
    "icao": "ZSPD",
    "iata": "PVG",
    "name": "Shanghai Pudong International Airport",
    "city": "Shanghai",
    "country": "China",
    "latitude": 31.1434,
    "longitude": 121.8055,
    "timezone": "Asia/Shanghai",
    "is_corporate_hub": false,
    "popularity_score": 50,
    "aircraft_types": [
      "commercial",
      "regional"
    ],
    "facilities": [
      "fbo"
    ],
    "runway_count": 1,
    "longest_runway_ft": 8000
  },
  {
    "icao": "ZBAA",
    "iata": "PEK",
    "name": "Beijing Capital International Airport",
    "city": "Beijing",
    "country": "China",
    "latitude": 40.0801,
    "longitude": 116.5846,
    "timezone": "Asia/Shanghai",
    "is_corporate_hub": false,
    "popularity_score": 50,
    "aircraft_types": [
      "commercial",
      "regional"
    ],
    "facilities": [
      "fbo"
    ],
    "runway_count": 1,
    "longest_runway_ft": 8000
  },
  {
    "icao": "ZGGG",
    "iata": "CAN",
    "name": "Guangzhou Baiyun International Airport",
    "city": "Guangzhou",
    "country": "China",
    "latitude": 23.3924,
    "longitude": 113.2988,
    "timezone": "Asia/Shanghai",
    "is_corporate_hub": false,
    "popularity_score": 50,
    "aircraft_types": [
      "commercial",
      "regional"
    ],
    "facilities": [
      "fbo"
    ],
    "runway_count": 1,
    "longest_runway_ft": 8000
  },
  {
    "icao": "VHHH",
    "iata": "HKG",
    "name": "Hong Kong International Airport",
    "city": "Hong Kong",
    "country": "Hong Kong SAR China",
    "latitude": 22.308,
    "longitude": 113.9185,
    "timezone": "Asia/Hong_Kong",
    "is_corporate_hub": false,
    "popularity_score": 50,
    "aircraft_types": [
      "commercial",
      "regional"
    ],
    "facilities": [
      "fbo"
    ],
    "runway_count": 1,
    "longest_runway_ft": 8000
  },
  {
    "icao": "RPLL",
    "iata": "MNL",
    "name": "Ninoy Aquino International Airport",
    "city": "Manila",
    "country": "Philippines",
    "latitude": 14.5086,
    "longitude": 121.0194,
    "timezone": "Asia/Manila",
    "is_corporate_hub": false,
    "popularity_score": 50,
    "aircraft_types": [
      "commercial",
      "regional"
    ],
    "facilities": [
      "fbo"
    ],
    "runway_count": 1,
    "longest_runway_ft": 8000
  },
  {
    "icao": "WIII",
    "iata": "CGK",
    "name": "Soekarno-Hatta International Airport",
    "city": "Jakarta",
    "country": "Indonesia",
    "latitude": -6.1256,
    "longitude": 106.6558,
    "timezone": "Asia/Jakarta",
    "is_corporate_hub": false,
    "popularity_score": 50,
    "aircraft_types": [
      "commercial",
      "regional"
    ],
    "facilities": [
      "fbo"
    ],
    "runway_count": 1,
    "longest_runway_ft": 8000
  },
  {
    "icao": "OMDB",
    "iata": "DXB",
    "name": "Dubai International Airport",
    "city": "Dubai",
    "country": "United Arab Emirates",
    "latitude": 25.2532,
    "longitude": 55.3657,
    "timezone": "Asia/Dubai",
    "is_corporate_hub": false,
    "popularity_score": 50,
    "aircraft_types": [
      "commercial",
      "regional"
    ],
    "facilities": [
      "fbo"
    ],
    "runway_count": 1,
    "longest_runway_ft": 8000
  },
  {
    "icao": "OTBD",
    "iata": "DOH",
    "name": "Hamad International Airport",
    "city": "Doha",
    "country": "Qatar",
    "latitude": 25.2731,
    "longitude": 51.6088,
    "timezone": "Asia/Qatar",
    "is_corporate_hub": false,
    "popularity_score": 50,
    "aircraft_types": [
      "commercial",
      "regional"
    ],
    "facilities": [
      "fbo"
    ],
    "runway_count": 1,
    "longest_runway_ft": 8000
  },
  {
    "icao": "OKBK",
    "iata": "KWI",
    "name": "Kuwait International Airport",
    "city": "Kuwait City",
    "country": "Kuwait",
    "latitude": 29.2267,
    "longitude": 47.9674,
    "timezone": "Asia/Kuwait",
    "is_corporate_hub": false,
    "popularity_score": 50,
    "aircraft_types": [
      "commercial",
      "regional"
    ],
    "facilities": [
      "fbo"
    ],
    "runway_count": 1,
    "longest_runway_ft": 8000
  },
  {
    "icao": "ORBS",
    "iata": "RUH",
    "name": "King Khalid International Airport",
    "city": "Riyadh",
    "country": "Saudi Arabia",
    "latitude": 24.9576,
    "longitude": 46.6988,
    "timezone": "Asia/Riyadh",
    "is_corporate_hub": false,
    "popularity_score": 50,
    "aircraft_types": [
      "commercial",
      "regional"
    ],
    "facilities": [
      "fbo"
    ],
    "runway_count": 1,
    "longest_runway_ft": 8000
  },
  {
    "icao": "OEJN",
    "iata": "JED",
    "name": "King Abdulaziz International Airport",
    "city": "Jeddah",
    "country": "Saudi Arabia",
    "latitude": 21.67,
    "longitude": 39.1045,
    "timezone": "Asia/Riyadh",
    "is_corporate_hub": false,
    "popularity_score": 50,
    "aircraft_types": [
      "commercial",
      "regional"
    ],
    "facilities": [
      "fbo"
    ],
    "runway_count": 1,
    "longest_runway_ft": 8000
  },
  {
    "icao": "HECA",
    "iata": "CAI",
    "name": "Cairo International Airport",
    "city": "Cairo",
    "country": "Egypt",
    "latitude": 30.1219,
    "longitude": 31.4056,
    "timezone": "Africa/Cairo",
    "is_corporate_hub": false,
    "popularity_score": 50,
    "aircraft_types": [
      "commercial",
      "regional"
    ],
    "facilities": [
      "fbo"
    ],
    "runway_count": 1,
    "longest_runway_ft": 8000
  },
  {
    "icao": "FAOR",
    "iata": "JNB",
    "name": "OR Tambo International Airport",
    "city": "Johannesburg",
    "country": "South Africa",
    "latitude": -26.1367,
    "longitude": 28.2411,
    "timezone": "Africa/Johannesburg",
    "is_corporate_hub": false,
    "popularity_score": 50,
    "aircraft_types": [
      "commercial",
      "regional"
    ],
    "facilities": [
      "fbo"
    ],
    "runway_count": 1,
    "longest_runway_ft": 8000
  },
  {
    "icao": "FACT",
    "iata": "CPT",
    "name": "Cape Town International Airport",
    "city": "Cape Town",
    "country": "South Africa",
    "latitude": -33.9692,
    "longitude": 18.6017,
    "timezone": "Africa/Johannesburg",
    "is_corporate_hub": false,
    "popularity_score": 50,
    "aircraft_types": [
      "commercial",
      "regional"
    ],
    "facilities": [
      "fbo"
    ],
    "runway_count": 1,
    "longest_runway_ft": 8000
  },
  {
    "icao": "DNMM",
    "iata": "LOS",
    "name": "Murtala Muhammed International Airport",
    "city": "Lagos",
    "country": "Nigeria",
    "latitude": 6.5774,
    "longitude": 3.3212,
    "timezone": "Africa/Lagos",
    "is_corporate_hub": false,
    "popularity_score": 50,
    "aircraft_types": [
      "commercial",
      "regional"
    ],
    "facilities": [
      "fbo"
    ],
    "runway_count": 1,
    "longest_runway_ft": 8000
  },
  {
    "icao": "HKNA",
    "iata": "NBO",
    "name": "Jomo Kenyatta International Airport",
    "city": "Nairobi",
    "country": "Kenya",
    "latitude": -1.3192,
    "longitude": 36.9278,
    "timezone": "Africa/Nairobi",
    "is_corporate_hub": false,
    "popularity_score": 50,
    "aircraft_types": [
      "commercial",
      "regional"
    ],
    "facilities": [
      "fbo"
    ],
    "runway_count": 1,
    "longest_runway_ft": 8000
  },
  {
    "icao": "SABE",
    "iata": "EZE",
    "name": "Ezeiza International Airport",
    "city": "Buenos Aires",
    "country": "Argentina",
    "latitude": -34.8156,
    "longitude": -58.5233,
    "timezone": "America/Argentina/Buenos_Aires",
    "is_corporate_hub": false,
    "popularity_score": 50,
    "aircraft_types": [
      "commercial",
      "regional"
    ],
    "facilities": [
      "fbo"
    ],
    "runway_count": 1,
    "longest_runway_ft": 8000
  },
  {
    "icao": "SBGL",
    "iata": "GIG",
    "name": "Rio de Janeiro-Galeão International Airport",
    "city": "Rio de Janeiro",
    "country": "Brazil",
    "latitude": -22.8089,
    "longitude": -43.2436,
    "timezone": "America/Sao_Paulo",
    "is_corporate_hub": false,
    "popularity_score": 50,
    "aircraft_types": [
      "commercial",
      "regional"
    ],
    "facilities": [
      "fbo"
    ],
    "runway_count": 1,
    "longest_runway_ft": 8000
  },
  {
    "icao": "SBGR",
    "iata": "GRU",
    "name": "São Paulo–Guarulhos International Airport",
    "city": "São Paulo",
    "country": "Brazil",
    "latitude": -23.4356,
    "longitude": -46.4731,
    "timezone": "America/Sao_Paulo",
    "is_corporate_hub": false,
    "popularity_score": 50,
    "aircraft_types": [
      "commercial",
      "regional"
    ],
    "facilities": [
      "fbo"
    ],
    "runway_count": 1,
    "longest_runway_ft": 8000
  },
  {
    "icao": "SKBO",
    "iata": "BOG",
    "name": "El Dorado International Airport",
    "city": "Bogotá",
    "country": "Colombia",
    "latitude": 4.7016,
    "longitude": -74.1469,
    "timezone": "America/Bogota",
    "is_corporate_hub": false,
    "popularity_score": 50,
    "aircraft_types": [
      "commercial",
      "regional"
    ],
    "facilities": [
      "fbo"
    ],
    "runway_count": 1,
    "longest_runway_ft": 8000
  },
  {
    "icao": "SPIM",
    "iata": "LIM",
    "name": "Jorge Chávez International Airport",
    "city": "Lima",
    "country": "Peru",
    "latitude": -12.0219,
    "longitude": -77.1147,
    "timezone": "America/Lima",
    "is_corporate_hub": false,
    "popularity_score": 50,
    "aircraft_types": [
      "commercial",
      "regional"
    ],
    "facilities": [
      "fbo"
    ],
    "runway_count": 1,
    "longest_runway_ft": 8000
  },
  {
    "icao": "SEQU",
    "iata": "UIO",
    "name": "Mariscal Sucre International Airport",
    "city": "Quito",
    "country": "Ecuador",
    "latitude": -0.1289,
    "longitude": -78.3578,
    "timezone": "America/Guayaquil",
    "is_corporate_hub": false,
    "popularity_score": 50,
    "aircraft_types": [
      "commercial",
      "regional"
    ],
    "facilities": [
      "fbo"
    ],
    "runway_count": 1,
    "longest_runway_ft": 8000
  },
  {
    "icao": "MMMZ",
    "iata": "MEX",
    "name": "Mexico City International Airport",
    "city": "Mexico City",
    "country": "Mexico",
    "latitude": 19.4363,
    "longitude": -99.0721,
    "timezone": "America/Mexico_City",
    "is_corporate_hub": false,
    "popularity_score": 50,
    "aircraft_types": [
      "commercial",
      "regional"
    ],
    "facilities": [
      "fbo"
    ],
    "runway_count": 1,
    "longest_runway_ft": 8000
  },
  {
    "icao": "MPTO",
    "iata": "PTY",
    "name": "Tocumen International Airport",
    "city": "Panama City",
    "country": "Panama",
    "latitude": 9.0683,
    "longitude": -79.4034,
    "timezone": "America/Panama",
    "is_corporate_hub": false,
    "popularity_score": 50,
    "aircraft_types": [
      "commercial",
      "regional"
    ],
    "facilities": [
      "fbo"
    ],
    "runway_count": 1,
    "longest_runway_ft": 8000
  },
  {
    "icao": "CYYZ",
    "iata": "YYZ",
    "name": "Toronto Pearson International Airport",
    "city": "Toronto",
    "country": "Canada",
    "latitude": 43.6777,
    "longitude": -79.6248,
    "timezone": "America/Toronto",
    "is_corporate_hub": false,
    "popularity_score": 50,
    "aircraft_types": [
      "commercial",
      "regional"
    ],
    "facilities": [
      "fbo"
    ],
    "runway_count": 1,
    "longest_runway_ft": 8000
  },
  {
    "icao": "CYVR",
    "iata": "YVR",
    "name": "Vancouver International Airport",
    "city": "Vancouver",
    "country": "Canada",
    "latitude": 49.1967,
    "longitude": -123.1815,
    "timezone": "America/Vancouver",
    "is_corporate_hub": false,
    "popularity_score": 50,
    "aircraft_types": [
      "commercial",
      "regional"
    ],
    "facilities": [
      "fbo"
    ],
    "runway_count": 1,
    "longest_runway_ft": 8000
  },
  {
    "icao": "CYUL",
    "iata": "YUL",
    "name": "Montréal–Trudeau International Airport",
    "city": "Montréal",
    "country": "Canada",
    "latitude": 45.4706,
    "longitude": -73.7408,
    "timezone": "America/Toronto",
    "is_corporate_hub": false,
    "popularity_score": 50,
    "aircraft_types": [
      "commercial",
      "regional"
    ],
    "facilities": [
      "fbo"
    ],
    "runway_count": 1,
    "longest_runway_ft": 8000
  },
  {
    "icao": "CYOW",
    "iata": "YOW",
    "name": "Ottawa Macdonald-Cartier International Airport",
    "city": "Ottawa",
    "country": "Canada",
    "latitude": 45.3225,
    "longitude": -75.6692,
    "timezone": "America/Toronto",
    "is_corporate_hub": false,
    "popularity_score": 50,
    "aircraft_types": [
      "commercial",
      "regional"
    ],
    "facilities": [
      "fbo"
    ],
    "runway_count": 1,
    "longest_runway_ft": 8000
  },
  {
    "icao": "NZAA",
    "iata": "AKL",
    "name": "Auckland Airport",
    "city": "Auckland",
    "country": "New Zealand",
    "latitude": -37.0082,
    "longitude": 174.785,
    "timezone": "Pacific/Auckland",
    "is_corporate_hub": false,
    "popularity_score": 50,
    "aircraft_types": [
      "commercial",
      "regional"
    ],
    "facilities": [
      "fbo"
    ],
    "runway_count": 1,
    "longest_runway_ft": 8000
  },
  {
    "icao": "YSSY",
    "iata": "SYD",
    "name": "Sydney Kingsford Smith Airport",
    "city": "Sydney",
    "country": "Australia",
    "latitude": -33.9461,
    "longitude": 151.1772,
    "timezone": "Australia/Sydney",
    "is_corporate_hub": false,
    "popularity_score": 50,
    "aircraft_types": [
      "commercial",
      "regional"
    ],
    "facilities": [
      "fbo"
    ],
    "runway_count": 1,
    "longest_runway_ft": 8000
  },
  {
    "icao": "YMML",
    "iata": "MEL",
    "name": "Melbourne Airport",
    "city": "Melbourne",
    "country": "Australia",
    "latitude": -37.668,
    "longitude": 144.8429,
    "timezone": "Australia/Melbourne",
    "is_corporate_hub": false,
    "popularity_score": 50,
    "aircraft_types": [
      "commercial",
      "regional"
    ],
    "facilities": [
      "fbo"
    ],
    "runway_count": 1,
    "longest_runway_ft": 8000
  },
  {
    "icao": "YBBN",
    "iata": "BNE",
    "name": "Brisbane Airport",
    "city": "Brisbane",
    "country": "Australia",
    "latitude": -27.3943,
    "longitude": 153.1173,
    "timezone": "Australia/Brisbane",
    "is_corporate_hub": false,
    "popularity_score": 50,
    "aircraft_types": [
      "commercial",
      "regional"
    ],
    "facilities": [
      "fbo"
    ],
    "runway_count": 1,
    "longest_runway_ft": 8000
  },
  {
    "icao": "YPPH",
    "iata": "PER",
    "name": "Perth Airport",
    "city": "Perth",
    "country": "Australia",
    "latitude": -31.9403,
    "longitude": 115.9668,
    "timezone": "Australia/Perth",
    "is_corporate_hub": false,
    "popularity_score": 50,
    "aircraft_types": [
      "commercial",
      "regional"
    ],
    "facilities": [
      "fbo"
    ],
    "runway_count": 1,
    "longest_runway_ft": 8000
  },
  {
    "icao": "YPAD",
    "iata": "ADL",
    "name": "Adelaide Airport",
    "city": "Adelaide",
    "country": "Australia",
    "latitude": -34.9459,
    "longitude": 138.5306,
    "timezone": "Australia/Adelaide",
    "is_corporate_hub": false,
    "popularity_score": 50,
    "aircraft_types": [
      "commercial",
      "regional"
    ],
    "facilities": [
      "fbo"
    ],
    "runway_count": 1,
    "longest_runway_ft": 8000
  },
  {
    "icao": "VCCC",
    "iata": "CMB",
    "name": "Bandaranaike International Airport",
    "city": "Colombo",
    "country": "Sri Lanka",
    "latitude": 7.1807,
    "longitude": 79.8864,
    "timezone": "Asia/Colombo",
    "is_corporate_hub": false,
    "popularity_score": 50,
    "aircraft_types": [
      "commercial",
      "regional"
    ],
    "facilities": [
      "fbo"
    ],
    "runway_count": 1,
    "longest_runway_ft": 8000
  },
  {
    "icao": "VTBS",
    "iata": "BKK",
    "name": "Suvarnabhumi Airport",
    "city": "Bangkok",
    "country": "Thailand",
    "latitude": 13.69,
    "longitude": 100.7501,
    "timezone": "Asia/Bangkok",
    "is_corporate_hub": false,
    "popularity_score": 50,
    "aircraft_types": [
      "commercial",
      "regional"
    ],
    "facilities": [
      "fbo"
    ],
    "runway_count": 1,
    "longest_runway_ft": 8000
  },
  {
    "icao": "WMKP",
    "iata": "PEN",
    "name": "Penang International Airport",
    "city": "Penang",
    "country": "Malaysia",
    "latitude": 5.2974,
    "longitude": 100.2732,
    "timezone": "Asia/Kuala_Lumpur",
    "is_corporate_hub": false,
    "popularity_score": 50,
    "aircraft_types": [
      "commercial",
      "regional"
    ],
    "facilities": [
      "fbo"
    ],
    "runway_count": 1,
    "longest_runway_ft": 8000
  },
  {
    "icao": "RJTT",
    "iata": "HND",
    "name": "Tokyo Haneda Airport",
    "city": "Tokyo",
    "country": "Japan",
    "latitude": 35.5533,
    "longitude": 139.7811,
    "timezone": "Asia/Tokyo",
    "is_corporate_hub": false,
    "popularity_score": 50,
    "aircraft_types": [
      "commercial",
      "regional"
    ],
    "facilities": [
      "fbo"
    ],
    "runway_count": 1,
    "longest_runway_ft": 8000
  },
  {
    "icao": "KIAH",
    "iata": "IAH",
    "name": "George Bush Intercontinental Airport",
    "city": "Houston",
    "state": "Texas",
    "country": "United States",
    "latitude": 29.9902,
    "longitude": -95.3368,
    "timezone": "America/Chicago",
    "is_corporate_hub": false,
    "popularity_score": 50,
    "aircraft_types": [
      "commercial",
      "regional"
    ],
    "facilities": [
      "fbo"
    ],
    "runway_count": 1,
    "longest_runway_ft": 8000
  },
  {
    "icao": "KBWI",
    "iata": "BWI",
    "name": "Baltimore/Washington International Thurgood Marshall Airport",
    "city": "Baltimore",
    "state": "Maryland",
    "country": "United States",
    "latitude": 39.1754,
    "longitude": -76.6683,
    "timezone": "America/New_York",
    "is_corporate_hub": false,
    "popularity_score": 50,
    "aircraft_types": [
      "commercial",
      "regional"
    ],
    "facilities": [
      "fbo"
    ],
    "runway_count": 1,
    "longest_runway_ft": 8000
  },
  {
    "icao": "KPHL",
    "iata": "PHL",
    "name": "Philadelphia International Airport",
    "city": "Philadelphia",
    "state": "Pennsylvania",
    "country": "United States",
    "latitude": 39.8719,
    "longitude": -75.2411,
    "timezone": "America/New_York",
    "is_corporate_hub": false,
    "popularity_score": 50,
    "aircraft_types": [
      "commercial",
      "regional"
    ],
    "facilities": [
      "fbo"
    ],
    "runway_count": 1,
    "longest_runway_ft": 8000
  },
  {
    "icao": "KCLT",
    "iata": "CLT",
    "name": "Charlotte Douglas International Airport",
    "city": "Charlotte",
    "state": "North Carolina",
    "country": "United States",
    "latitude": 35.2144,
    "longitude": -80.9433,
    "timezone": "America/New_York",
    "is_corporate_hub": false,
    "popularity_score": 50,
    "aircraft_types": [
      "commercial",
      "regional"
    ],
    "facilities": [
      "fbo"
    ],
    "runway_count": 1,
    "longest_runway_ft": 8000
  },
  {
    "icao": "KMCO",
    "iata": "MCO",
    "name": "Orlando International Airport",
    "city": "Orlando",
    "state": "Florida",
    "country": "United States",
    "latitude": 28.4312,
    "longitude": -81.3081,
    "timezone": "America/New_York",
    "is_corporate_hub": false,
    "popularity_score": 50,
    "aircraft_types": [
      "commercial",
      "regional"
    ],
    "facilities": [
      "fbo"
    ],
    "runway_count": 1,
    "longest_runway_ft": 8000
  },
  {
    "icao": "KDTW",
    "iata": "DTW",
    "name": "Detroit Metropolitan Wayne County Airport",
    "city": "Detroit",
    "state": "Michigan",
    "country": "United States",
    "latitude": 42.2124,
    "longitude": -83.3534,
    "timezone": "America/Detroit",
    "is_corporate_hub": false,
    "popularity_score": 50,
    "aircraft_types": [
      "commercial",
      "regional"
    ],
    "facilities": [
      "fbo"
    ],
    "runway_count": 1,
    "longest_runway_ft": 8000
  },
  {
    "icao": "KBOS",
    "iata": "BOS",
    "name": "Boston Logan International Airport",
    "city": "Boston",
    "state": "Massachusetts",
    "country": "United States",
    "latitude": 42.3656,
    "longitude": -71.0096,
    "timezone": "America/New_York",
    "is_corporate_hub": false,
    "popularity_score": 50,
    "aircraft_types": [
      "commercial",
      "regional"
    ],
    "facilities": [
      "fbo"
    ],
    "runway_count": 1,
    "longest_runway_ft": 8000
  },
  {
    "icao": "KPHX",
    "iata": "PHX",
    "name": "Phoenix Sky Harbor International Airport",
    "city": "Phoenix",
    "state": "Arizona",
    "country": "United States",
    "latitude": 33.4352,
    "longitude": -112.0101,
    "timezone": "America/Phoenix",
    "is_corporate_hub": false,
    "popularity_score": 50,
    "aircraft_types": [
      "commercial",
      "regional"
    ],
    "facilities": [
      "fbo"
    ],
    "runway_count": 1,
    "longest_runway_ft": 8000
  },
  {
    "icao": "KSLC",
    "iata": "SLC",
    "name": "Salt Lake City International Airport",
    "city": "Salt Lake City",
    "state": "Utah",
    "country": "United States",
    "latitude": 40.7899,
    "longitude": -111.9791,
    "timezone": "America/Denver",
    "is_corporate_hub": false,
    "popularity_score": 50,
    "aircraft_types": [
      "commercial",
      "regional"
    ],
    "facilities": [
      "fbo"
    ],
    "runway_count": 1,
    "longest_runway_ft": 8000
  },
  {
    "icao": "KMSP",
    "iata": "MSP",
    "name": "Minneapolis–Saint Paul International Airport",
    "city": "Minneapolis",
    "state": "Minnesota",
    "country": "United States",
    "latitude": 44.8848,
    "longitude": -93.2223,
    "timezone": "America/Chicago",
    "is_corporate_hub": false,
    "popularity_score": 50,
    "aircraft_types": [
      "commercial",
      "regional"
    ],
    "facilities": [
      "fbo"
    ],
    "runway_count": 1,
    "longest_runway_ft": 8000
  },
  {
    "icao": "KTPA",
    "iata": "TPA",
    "name": "Tampa International Airport",
    "city": "Tampa",
    "state": "Florida",
    "country": "United States",
    "latitude": 27.9755,
    "longitude": -82.5332,
    "timezone": "America/New_York",
    "is_corporate_hub": false,
    "popularity_score": 50,
    "aircraft_types": [
      "commercial",
      "regional"
    ],
    "facilities": [
      "fbo"
    ],
    "runway_count": 1,
    "longest_runway_ft": 8000
  }
]